{"Kingston-Upon-Thames": {"results": [{"address_components": [{"long_name": "Kingston upon Thames", "short_name": "Kingston upon Thames", "types": ["locality", "political"]}, {"long_name": "Greater London", "short_name": "Greater London", "types": ["administrative_area_level_2", "political"]}, {"long_name": "England", "short_name": "England", "types": ["administrative_area_level_1", "political"]}, {"long_name": "United Kingdom", "short_name": "GB", "types": ["country", "political"]}], "formatted_address": "Kingston upon Thames, UK", "geometry": {"bounds": {"northeast": {"lat": 51.4372907, "lng": -0.2495432}, "southwest": {"lat": 51.3977209, "lng": -0.3168545}}, "location": {"lat": 51.41233, "lng": -0.300689}, "location_type": "APPROXIMATE", "viewport": {"northeast": {"lat": 51.4372907, "lng": -0.2495432}, "southwest": {"lat": 51.3977209, "lng": -0.3168545}}}, "place_id": "ChIJU3SYeDcJdkgR7DU-PrIhP0w", "types": ["locality", "political"]}], "status": "OK"}, "Los Angeles, California": {"results": [{"address_components": [{"long_name": "Los Angeles", "short_name": "Los Angeles", "types": ["locality", "political"]}, {"long_name": "Los Angeles County", "short_name": "Los Angeles County", "types": ["administrative_area_level_2", "political"]}, {"long_name": "California", "short_name": "CA", "types": ["administrative_area_level_1", "political"]}, {"long_name": "United States", "short_name": "US", "types": ["country", "political"]}], "formatted_address": "Los Angeles, CA, USA", "geometry": {"bounds": {"northeast": {"lat": 34.3373061, "lng": -118.1552891}, "southwest": {"lat": 33.7036519, "lng": -118.6681759}}, "location": {"lat": 34.0522342, "lng": -118.2436849}, "location_type": "APPROXIMATE", "viewport": {"northeast": {"lat": 34.3373061, "lng": -118.1552891}, "southwest": {"lat": 33.7036519, "lng": -118.6681759}}}, "place_id": "ChIJE9on3F3HwoAR9AhGJW_fL-I", "types": ["locality", "political"]}], "status": "OK"}, "Springfield, IL": {"results": [{"address_components": [{"long_name": "Springfield", "short_name": "Springfield", "types": ["locality", "political"]}, {"long_name": "Sangamon County", "short_name": "Sangamon County", "types": ["administrative_area_level_2", "political"]}, {"long_name": "Illinois", "short_name": "IL", "types": ["administrative_area_level_1", "political"]}, {"long_name": "United States", "short_name": "US", "types": ["country", "political"]}], "formatted_address": "Springfield, IL, USA", "geometry": {"bounds": {"northeast": {"lat": 39.874049, "lng": -89.5684858}, "southwest": {"lat": 39.6536259, "lng": -89.7731769}}, "location": {"lat": 39.78172130000001, "lng": -89.6501481}, "location_type": "APPROXIMATE", "viewport": {"northeast": {"lat": 39.874049, "lng": -89.5684858}, "southwest": {"lat": 39.6536259, "lng": -89.7731769}}}, "place_id": "ChIJd9HbJB05dYgRIm2ozO6CLOc", "types": ["locality", "political"]}], "status": "OK"}, "Salt Lake City": {"results": [{"address_components": [{"long_name": "Salt Lake City", "short_name": "Salt Lake City", "types": ["locality", "political"]}, {"long_name": "Salt Lake County", "short_name": "Salt Lake County", "types": ["administrative_area_level_2", "political"]}, {"long_name": "Utah", "short_name": "UT", "types": ["administrative_area_level_1", "political"]}, {"long_name": "United States", "short_name": "US", "types": ["country", "political"]}], "formatted_address": "Salt Lake City, UT, USA", "geometry": {"bounds": {"northeast": {"lat": 40.8529699, "lng": -111.7394581}, "southwest": {"lat": 40.700246, "lng": -112.101512}}, "location": {"lat": 40.7607793, "lng": -111.8910474}, "location_type": "APPROXIMATE", "viewport": {"northeast": {"lat": 40.8529699, "lng": -111.7394581}, "southwest": {"lat": 40.700246, "lng": -112.101512}}}, "place_id": "ChIJ7THRiJQ9UocRyjFNSKC3U1s", "types": ["locality", "political"]}], "status": "OK"}, "Columbus, Mississippi": {"results": [{"address_components": [{"long_name": "Columbus", "short_name": "Columbus", "types": ["locality", "political"]}, {"long_name": "Lowndes County", "short_name": "Lowndes County", "types": ["administrative_area_level_2", "political"]}, {"long_name": "Mississippi", "short_name": "MS", "types": ["administrative_area_level_1", "political"]}, {"long_name": "United States", "short_name": "US", "types": ["country", "political"]}], "formatted_address": "Columbus, MS, USA", "geometry": {"bounds": {"northeast": {"lat": 33.5578169, "lng": -88.363079}, "southwest": {"lat": 33.4563899, "lng": -88.490066}}, "location": {"lat": 33.4956744, "lng": -88.4272627}, "location_type": "APPROXIMATE", "viewport": {"northeast": {"lat": 33.5578169, "lng": -88.363079}, "southwest": {"lat": 33.4563899, "lng": -88.490066}}}, "place_id": "ChIJ0YN-TtvrhogRSUwqnWInmWo", "types": ["locality", "political"]}], "status": "OK"}, "Torquay, Devon, England": {"results": [{"address_components": [{"long_name": "Torquay", "short_name": "Torquay", "types": ["locality", "political"]}, {"long_name": "Torbay", "short_name": "Torbay", "types": ["administrative_area_level_2", "political"]}, {"long_name": "England", "short_name": "England", "types": ["administrative_area_level_1", "political"]}, {"long_name": "United Kingdom", "short_name": "GB", "types": ["country", "political"]}], "formatted_address": "Torquay, UK", "geometry": {"bounds": {"northeast": {"lat": 50.502461, "lng": -3.4800021}, "southwest": {"lat": 50.4510189, "lng": -3.5827901}}, "location": {"lat": 50.4619209, "lng": -3.525315}, "location_type": "APPROXIMATE", "viewport": {"northeast": {"lat": 50.502461, "lng": -3.4800021}, "southwest": {"lat": 50.4510189, "lng": -3.5827901}}}, "place_id": "ChIJ6XtmM1wFbUgRSOtwQ_Jzn5U", "types": ["locality", "political"]}], "status": "OK"}, "Annapolis, Md.": {"results": [{"address_components": [{"long_name": "Annapolis", "short_name": "Annapolis", "types": ["locality", "political"]}, {"long_name": "Annapolis", "short_name": "6", "types": ["administrative_area_level_3", "political"]}, {"long_name": "Anne Arundel County", "short_name": "Anne Arundel County", "types": ["administrative_area_level_2", "political"]}, {"long_name": "Maryland", "short_name": "MD", "types": ["administrative_area_level_1", "political"]}, {"long_name": "United States", "short_name": "US", "types": ["country", "political"]}], "formatted_address": "Annapolis, MD, USA", "geometry": {"bounds": {"northeast": {"lat": 39.002911, "lng": -76.469805}, "southwest": {"lat": 38.94202689999999, "lng": -76.5395839}}, "location": {"lat": 38.9784453, "lng": -76.4921829}, "location_type": "APPROXIMATE", "viewport": {"northeast": {"lat": 39.002911, "lng": -76.469805}, "southwest": {"lat": 38.94202689999999, "lng": -76.5395839}}}, "place_id": "ChIJ1S9ncGX2t4kRSyeo0_1U-EM", "types": ["locality", "political"]}], "status": "OK"}, "Portsmouth, England": {"results": [{"address_components": [{"long_name": "Portsmouth", "short_name": "Portsmouth", "types": ["locality", "political"]}, {"long_name": "Portsmouth", "short_name": "Portsmouth", "types": ["administrative_area_level_2", "political"]}, {"long_name": "England", "short_name": "England", "types": ["administrative_area_level_1", "political"]}, {"long_name": "United Kingdom", "short_name": "GB", "types": ["country", "political"]}], "formatted_address": "Portsmouth, UK", "geometry": {"bounds": {"northeast": {"lat": 50.8593091, "lng": -1.0184922}, "southwest": {"lat": 50.7501624, "lng": -1.1749682}}, "location": {"lat": 50.8197675, "lng": -1.0879769}, "location_type": "APPROXIMATE", "viewport": {"northeast": {"lat": 50.8593091, "lng": -1.0184922}, "southwest": {"lat": 50.7501624, "lng": -1.1749682}}}, "place_id": "ChIJ6fEUGKRCdEgReTs3A-qDtkU", "types": ["locality", "political"]}], "status": "OK"}, "Horse Camp, Five Wells Ranch, Andrews County, Texas": {"results": [{"address_components": [{"long_name": "Andrews County", "short_name": "Andrews County", "types": ["administrative_area_level_2", "political"]}, {"long_name": "Texas", "short_name": "TX", "types": ["administrative_area_level_1", "political"]}, {"long_name": "United States", "short_name": "US", "types": ["country", "political"]}], "formatted_address": "Andrews County, TX, USA", "geometry": {"bounds": {"northeast": {"lat": 32.5233711, "lng": -102.210843}, "southwest": {"lat": 32.0857939, "lng": -103.064788}}, "location": {"lat": 32.342627, "lng": -102.7135121}, "location_type": "APPROXIMATE", "viewport": {"northeast": {"lat": 32.5233711, "lng": -102.210843}, "southwest": {"lat": 32.0857939, "lng": -103.064788}}}, "partial_match": true, "place_id": "ChIJB0YjgK6N-4YRULmdScI_-9o", "types": ["administrative_area_level_2", "political"]}], "status": "OK"}, "Jamestown, North Dakota": {"results": [{"address_components": [{"long_name": "Jamestown", "short_name": "Jamestown", "types": ["locality", "political"]}, {"long_name": "Stutsman County", "short_name": "Stutsman County", "types": ["administrative_area_level_2", "political"]}, {"long_name": "North Dakota", "short_name": "ND", "types": ["administrative_area_level_1", "political"]}, {"long_name": "United States", "short_name": "US", "types": ["country", "political"]}], "formatted_address": "Jamestown, ND, USA", "geometry": {"bounds": {"northeast": {"lat": 46.942924, "lng": -98.61514179999999}, "southwest": {"lat": 46.877392, "lng": -98.75866889999999}}, "location": {"lat": 46.9105438, "lng": -98.7084357}, "location_type": "APPROXIMATE", "viewport": {"northeast": {"lat": 46.942924, "lng": -98.61514179999999}, "southwest": {"lat": 46.877392, "lng": -98.75866889999999}}}, "place_id": "ChIJ0YjlUAsT0FIRV4vNrO_n7As", "types": ["locality", "political"]}], "status": "OK"}, "Arkansas City, KS": {"results": [{"address_components": [{"long_name": "Arkansas City", "short_name": "Arkansas City", "types": ["locality", "political"]}, {"long_name": "Cowley County", "short_name": "Cowley County", "types": ["administrative_area_level_2", "political"]}, {"long_name": "Kansas", "short_name": "KS", "types": ["administrative_area_level_1", "political"]}, {"long_name": "United States", "short_name": "US", "types": ["country", "political"]}, {"long_name": "67005", "short_name": "67005", "types": ["postal_code"]}], "formatted_address": "Arkansas City, KS 67005, USA", "geometry": {"bounds": {"northeast": {"lat": 37.141649, "lng": -96.9999519}, "southwest": {"lat": 37.038382, "lng": -97.067348}}, "location": {"lat": 37.0619736, "lng": -97.0383712}, "location_type": "APPROXIMATE", "viewport": {"northeast": {"lat": 37.141649, "lng": -96.9999519}, "southwest": {"lat": 37.038382, "lng": -97.067348}}}, "place_id": "ChIJRXj47bWBsIcREbkZd0qlqmg", "types": ["locality", "political"]}], "status": "OK"}, "Milford, Connecticut": {"results": [{"address_components": [{"long_name": "Milford", "short_name": "Milford", "types": ["locality", "political"]}, {"long_name": "New Haven County", "short_name": "New Haven County", "types": ["administrative_area_level_2", "political"]}, {"long_name": "Connecticut", "short_name": "CT", "types": ["administrative_area_level_1", "political"]}, {"long_name": "United States", "short_name": "US", "types": ["country", "political"]}], "formatted_address": "Milford, CT, USA", "geometry": {"bounds": {"northeast": {"lat": 41.276596, "lng": -72.979047}, "southwest": {"lat": 41.168605, "lng": -73.1224529}}, "location": {"lat": 41.2306979, "lng": -73.064036}, "location_type": "APPROXIMATE", "viewport": {"northeast": {"lat": 41.276596, "lng": -72.979047}, "southwest": {"lat": 41.168605, "lng": -73.1224529}}}, "place_id": "ChIJ2zH4pmB06IkRg0DXeJkC-UA", "types": ["locality", "political"]}], "status": "OK"}, "Portland, Maine": {"results": [{"address_components": [{"long_name": "Portland", "short_name": "Portland", "types": ["locality", "political"]}, {"long_name": "Cumberland County", "short_name": "Cumberland County", "types": ["administrative_area_level_2", "political"]}, {"long_name": "Maine", "short_name": "ME", "types": ["administrative_area_level_1", "political"]}, {"long_name": "United States", "short_name": "US", "types": ["country", "political"]}], "formatted_address": "Portland, ME, USA", "geometry": {"bounds": {"northeast": {"lat": 43.727658, "lng": -70.0769348}, "southwest": {"lat": 43.6063629, "lng": -70.3460949}}, "location": {"lat": 43.6590993, "lng": -70.2568189}, "location_type": "APPROXIMATE", "viewport": {"northeast": {"lat": 43.727658, "lng": -70.0769348}, "southwest": {"lat": 43.6063629, "lng": -70.3460949}}}, "place_id": "ChIJLe6wqnKcskwRKfpyM7W2nX4", "types": ["locality", "political"]}], "status": "OK"}, "Portsmouth, Virginia": {"results": [{"address_components": [{"long_name": "Portsmouth", "short_name": "Portsmouth", "types": ["locality", "political"]}, {"long_name": "Virginia", "short_name": "VA", "types": ["administrative_area_level_1", "political"]}, {"long_name": "United States", "short_name": "US", "types": ["country", "political"]}], "formatted_address": "Portsmouth, VA, USA", "geometry": {"bounds": {"northeast": {"lat": 36.9510589, "lng": -76.289962}, "southwest": {"lat": 36.786062, "lng": -76.420368}}, "location": {"lat": 36.8354258, "lng": -76.2982742}, "location_type": "APPROXIMATE", "viewport": {"northeast": {"lat": 36.9510589, "lng": -76.289962}, "southwest": {"lat": 36.786062, "lng": -76.420368}}}, "place_id": "ChIJhzeTSraYuokRrfxUY0SqgvU", "types": ["locality", "political"]}], "status": "OK"}, "Melbourne": {"results": [{"address_components": [{"long_name": "Melbourne", "short_name": "Melbourne", "types": ["colloquial_area", "locality", "political"]}, {"long_name": "Victoria", "short_name": "VIC", "types": ["administrative_area_level_1", "political"]}, {"long_name": "Australia", "short_name": "AU", "types": ["country", "political"]}], "formatted_address": "Melbourne VIC, Australia", "geometry": {"bounds": {"northeast": {"lat": -37.5112737, "lng": 145.5125288}, "southwest": {"lat": -38.4338593, "lng": 144.5937418}}, "location": {"lat": -37.8136276, "lng": 144.9630576}, "location_type": "APPROXIMATE", "viewport": {"northeast": {"lat": -37.5112737, "lng": 145.5125288}, "southwest": {"lat": -38.4338593, "lng": 144.5937418}}}, "place_id": "ChIJ90260rVG1moRkM2MIXVWBAQ", "types": ["colloquial_area", "locality", "political"]}], "status": "OK"}, "Cheshire, Connecticut": {"results": [{"address_components": [{"long_name": "Cheshire", "short_name": "Cheshire", "types": ["locality", "political"]}, {"long_name": "Wallingford", "short_name": "Wallingford", "types": ["administrative_area_level_3", "political"]}, {"long_name": "New Haven County", "short_name": "New Haven County", "types": ["administrative_area_level_2", "political"]}, {"long_name": "Connecticut", "short_name": "CT", "types": ["administrative_area_level_1", "political"]}, {"long_name": "United States", "short_name": "US", "types": ["country", "political"]}], "formatted_address": "Cheshire, CT, USA", "geometry": {"bounds": {"northeast": {"lat": 41.563797, "lng": -72.8462959}, "southwest": {"lat": 41.448097, "lng": -72.9699491}}, "location": {"lat": 41.5083668, "lng": -72.9106202}, "location_type": "APPROXIMATE", "viewport": {"northeast": {"lat": 41.563797, "lng": -72.8462959}, "southwest": {"lat": 41.448097, "lng": -72.9699491}}}, "place_id": "ChIJLT6ijvzF54kRwNxD5ydBn4Y", "types": ["locality", "political"]}], "status": "OK"}, "Ft. Benning": {"results": [{"address_components": [{"long_name": "Fort Benning", "short_name": "Fort Benning", "types": ["locality", "political"]}, {"long_name": "Chattahoochee County", "short_name": "Chattahoochee County", "types": ["administrative_area_level_2", "political"]}, {"long_name": "Georgia", "short_name": "GA", "types": ["administrative_area_level_1", "political"]}, {"long_name": "United States", "short_name": "US", "types": ["country", "political"]}, {"long_name": "31905", "short_name": "31905", "types": ["postal_code"]}], "formatted_address": "Fort Benning, GA 31905, USA", "geometry": {"bounds": {"northeast": {"lat": 32.381921, "lng": -84.915747}, "southwest": {"lat": 32.314333, "lng": -85.008096}}, "location": {"lat": 32.3530561, "lng": -84.9552211}, "location_type": "APPROXIMATE", "viewport": {"northeast": {"lat": 32.381921, "lng": -84.915747}, "southwest": {"lat": 32.314333, "lng": -85.008096}}}, "place_id": "ChIJjQ8XgGTTjIgRNF9OxA6b4xo", "types": ["locality", "political"]}], "status": "OK"}, "New York": {"results": [{"address_components": [{"long_name": "New York", "short_name": "New York", "types": ["locality", "political"]}, {"long_name": "New York", "short_name": "NY", "types": ["administrative_area_level_1", "political"]}, {"long_name": "United States", "short_name": "US", "types": ["country", "political"]}], "formatted_address": "New York, NY, USA", "geometry": {"bounds": {"northeast": {"lat": 40.9175771, "lng": -73.70027209999999}, "southwest": {"lat": 40.4773991, "lng": -74.25908989999999}}, "location": {"lat": 40.7127753, "lng": -74.0059728}, "location_type": "APPROXIMATE", "viewport": {"northeast": {"lat": 40.9175771, "lng": -73.70027209999999}, "southwest": {"lat": 40.4773991, "lng": -74.25908989999999}}}, "place_id": "ChIJOwg_06VPwokRYv534QaPC8g", "types": ["locality", "political"]}], "status": "OK"}, "Carlow": {"results": [{"address_components": [{"long_name": "3333", "short_name": "3333", "types": ["street_number"]}, {"long_name": "Fifth Avenue", "short_name": "Fifth Ave", "types": ["route"]}, {"long_name": "West Oakland", "short_name": "West Oakland", "types": ["neighborhood", "political"]}, {"long_name": "Pittsburgh", "short_name": "Pittsburgh", "types": ["locality", "political"]}, {"long_name": "Allegheny County", "short_name": "Allegheny County", "types": ["administrative_area_level_2", "political"]}, {"long_name": "Pennsylvania", "short_name": "PA", "types": ["administrative_area_level_1", "political"]}, {"long_name": "United States", "short_name": "US", "types": ["country", "political"]}, {"long_name": "15213", "short_name": "15213", "types": ["postal_code"]}, {"long_name": "3109", "short_name": "3109", "types": ["postal_code_suffix"]}], "formatted_address": "3333 Fifth Ave, Pittsburgh, PA 15213, USA", "geometry": {"location": {"lat": 40.4394832, "lng": -79.96391450000002}, "location_type": "ROOFTOP", "viewport": {"northeast": {"lat": 40.44083218029149, "lng": -79.96256551970852}, "southwest": {"lat": 40.43813421970849, "lng": -79.96526348029153}}}, "place_id": "ChIJKbYiMYDxNIgR_T9lIm2SMwI", "plus_code": {"compound_code": "C2QP+QC Pittsburgh, Pennsylvania, United States", "global_code": "87G2C2QP+QC"}, "types": ["establishment", "point_of_interest", "school", "university"]}], "status": "OK"}, "Colonus (Athens)": {"results": [{"address_components": [{"long_name": "Colonus", "short_name": "Colonus", "types": ["neighborhood", "political"]}, {"long_name": "Athens", "short_name": "Athens", "types": ["locality", "political"]}, {"long_name": "Central Athens", "short_name": "Central Athens", "types": ["administrative_area_level_3", "political"]}, {"long_name": "Greece", "short_name": "GR", "types": ["country", "political"]}, {"long_name": "104 44", "short_name": "104 44", "types": ["postal_code"]}], "formatted_address": "Colonus, Athens 104 44, Greece", "geometry": {"location": {"lat": 37.9944764, "lng": 23.7129839}, "location_type": "APPROXIMATE", "viewport": {"northeast": {"lat": 38.0032692, "lng": 23.7289913}, "southwest": {"lat": 37.9856826, "lng": 23.6969765}}}, "place_id": "ChIJQdyg9dW8oRQRAks7-S29ACY", "types": ["neighborhood", "political"]}], "status": "OK"}, "London": {"results": [{"address_components": [{"long_name": "London", "short_name": "London", "types": ["locality", "political"]}, {"long_name": "London", "short_name": "London", "types": ["postal_town"]}, {"long_name": "Greater London", "short_name": "Greater London", "types": ["administrative_area_level_2", "political"]}, {"long_name": "England", "short_name": "England", "types": ["administrative_area_level_1", "political"]}, {"long_name": "United Kingdom", "short_name": "GB", "types": ["country", "political"]}], "formatted_address": "London, UK", "geometry": {"bounds": {"northeast": {"lat": 51.6723432, "lng": 0.148271}, "southwest": {"lat": 51.38494009999999, "lng": -0.3514683}}, "location": {"lat": 51.5073509, "lng": -0.1277583}, "location_type": "APPROXIMATE", "viewport": {"northeast": {"lat": 51.6723432, "lng": 0.148271}, "southwest": {"lat": 51.38494009999999, "lng": -0.3514683}}}, "place_id": "ChIJdd4hrwug2EcRmSrV3Vo6llI", "types": ["locality", "political"]}], "status": "OK"}, "New York, New York": {"results": [{"address_components": [{"long_name": "New York", "short_name": "New York", "types": ["locality", "political"]}, {"long_name": "New York", "short_name": "NY", "types": ["administrative_area_level_1", "political"]}, {"long_name": "United States", "short_name": "US", "types": ["country", "political"]}], "formatted_address": "New York, NY, USA", "geometry": {"bounds": {"northeast": {"lat": 40.9175771, "lng": -73.70027209999999}, "southwest": {"lat": 40.4773991, "lng": -74.25908989999999}}, "location": {"lat": 40.7127753, "lng": -74.0059728}, "location_type": "APPROXIMATE", "viewport": {"northeast": {"lat": 40.9175771, "lng": -73.70027209999999}, "southwest": {"lat": 40.4773991, "lng": -74.25908989999999}}}, "place_id": "ChIJOwg_06VPwokRYv534QaPC8g", "types": ["locality", "political"]}], "status": "OK"}, "Manhattan, New York": {"results": [{"address_components": [{"long_name": "Manhattan", "short_name": "Manhattan", "types": ["political", "sublocality", "sublocality_level_1"]}, {"long_name": "New York", "short_name": "New York", "types": ["locality", "political"]}, {"long_name": "New York County", "short_name": "New York County", "types": ["administrative_area_level_2", "political"]}, {"long_name": "New York", "short_name": "NY", "types": ["administrative_area_level_1", "political"]}, {"long_name": "United States", "short_name": "US", "types": ["country", "political"]}], "formatted_address": "Manhattan, New York, NY, USA", "geometry": {"bounds": {"northeast": {"lat": 40.882214, "lng": -73.907}, "southwest": {"lat": 40.6803955, "lng": -74.047285}}, "location": {"lat": 40.7830603, "lng": -73.9712488}, "location_type": "APPROXIMATE", "viewport": {"northeast": {"lat": 40.820045, "lng": -73.90331300000001}, "southwest": {"lat": 40.698078, "lng": -74.03514899999999}}}, "place_id": "ChIJYeZuBI9YwokRjMDs_IEyCwo", "types": ["political", "sublocality", "sublocality_level_1"]}], "status": "OK"}, "Kabul": {"results": [{"address_components": [{"long_name": "Kabul", "short_name": "Kabul", "types": ["locality", "political"]}, {"long_name": "Kabul", "short_name": "Kabul", "types": ["administrative_area_level_1", "political"]}, {"long_name": "Afghanistan", "short_name": "AF", "types": ["country", "political"]}], "formatted_address": "Kabul, Afghanistan", "geometry": {"bounds": {"northeast": {"lat": 34.7619227, "lng": 69.4459534}, "southwest": {"lat": 34.3454912, "lng": 68.9495086}}, "location": {"lat": 34.5553494, "lng": 69.207486}, "location_type": "APPROXIMATE", "viewport": {"northeast": {"lat": 34.7619227, "lng": 69.4459534}, "southwest": {"lat": 34.3454912, "lng": 68.9495086}}}, "place_id": "ChIJSW0ePExp0TgRKUQheDVH3-s", "types": ["locality", "political"]}], "status": "OK"}, "Riga": {"results": [{"address_components": [{"long_name": "Riga", "short_name": "Riga", "types": ["locality", "political"]}, {"long_name": "Latvia", "short_name": "LV", "types": ["country", "political"]}], "formatted_address": "Riga, Latvia", "geometry": {"bounds": {"northeast": {"lat": 57.085921, "lng": 24.3246659}, "southwest": {"lat": 56.8570279, "lng": 23.933659}}, "location": {"lat": 56.9496487, "lng": 24.1051865}, "location_type": "APPROXIMATE", "viewport": {"northeast": {"lat": 57.085921, "lng": 24.3246659}, "southwest": {"lat": 56.8570279, "lng": 23.933659}}}, "place_id": "ChIJ7T0H5bDP7kYRMP7yaM3PAAQ", "types": ["locality", "political"]}], "status": "OK"}, "Columbus, Ohio": {"results": [{"address_components": [{"long_name": "Columbus", "short_name": "Columbus", "types": ["locality", "political"]}, {"long_name": "Franklin County", "short_name": "Franklin County", "types": ["administrative_area_level_2", "political"]}, {"long_name": "Ohio", "short_name": "OH", "types": ["administrative_area_level_1", "political"]}, {"long_name": "United States", "short_name": "US", "types": ["country", "political"]}], "formatted_address": "Columbus, OH, USA", "geometry": {"bounds": {"northeast": {"lat": 40.1572719, "lng": -82.77137809999999}, "southwest": {"lat": 39.808631, "lng": -83.2102799}}, "location": {"lat": 39.9611755, "lng": -82.99879419999999}, "location_type": "APPROXIMATE", "viewport": {"northeast": {"lat": 40.1572719, "lng": -82.77137809999999}, "southwest": {"lat": 39.808631, "lng": -83.2102799}}}, "place_id": "ChIJcd6QucGJOIgRM7Wxz_hmMuQ", "types": ["locality", "political"]}], "status": "OK"}, "San Francisco, California": {"results": [{"address_components": [{"long_name": "San Francisco", "short_name": "SF", "types": ["locality", "political"]}, {"long_name": "San Francisco County", "short_name": "San Francisco County", "types": ["administrative_area_level_2", "political"]}, {"long_name": "California", "short_name": "CA", "types": ["administrative_area_level_1", "political"]}, {"long_name": "United States", "short_name": "US", "types": ["country", "political"]}], "formatted_address": "San Francisco, CA, USA", "geometry": {"bounds": {"northeast": {"lat": 37.9298239, "lng": -122.28178}, "southwest": {"lat": 37.6398299, "lng": -123.173825}}, "location": {"lat": 37.7749295, "lng": -122.4194155}, "location_type": "APPROXIMATE", "viewport": {"northeast": {"lat": 37.812, "lng": -122.3482}, "southwest": {"lat": 37.70339999999999, "lng": -122.527}}}, "place_id": "ChIJIQBpAG2ahYAR_6128GcTUEo", "types": ["locality", "political"]}], "status": "OK"}, "Boston, Massachusetts": {"results": [{"address_components": [{"long_name": "Boston", "short_name": "Boston", "types": ["locality", "political"]}, {"long_name": "Suffolk County", "short_name": "Suffolk County", "types": ["administrative_area_level_2", "political"]}, {"long_name": "Massachusetts", "short_name": "MA", "types": ["administrative_area_level_1", "political"]}, {"long_name": "United States", "short_name": "US", "types": ["country", "political"]}], "formatted_address": "Boston, MA, USA", "geometry": {"bounds": {"northeast": {"lat": 42.40081989999999, "lng": -70.749455}, "southwest": {"lat": 42.22788, "lng": -71.191113}}, "location": {"lat": 42.3600825, "lng": -71.0588801}, "location_type": "APPROXIMATE", "viewport": {"northeast": {"lat": 42.40081989999999, "lng": -70.749455}, "southwest": {"lat": 42.22788, "lng": -71.191113}}}, "place_id": "ChIJGzE9DS1l44kRoOhiASS_fHg", "types": ["locality", "political"]}], "status": "OK"}, "Salford, Lancashire": {"results": [{"address_components": [{"long_name": "Salford", "short_name": "Salford", "types": ["locality", "political"]}, {"long_name": "Greater Manchester", "short_name": "Greater Manchester", "types": ["administrative_area_level_2", "political"]}, {"long_name": "England", "short_name": "England", "types": ["administrative_area_level_1", "political"]}, {"long_name": "United Kingdom", "short_name": "GB", "types": ["country", "political"]}], "formatted_address": "Salford, UK", "geometry": {"bounds": {"northeast": {"lat": 53.51842809999999, "lng": -2.2451382}, "southwest": {"lat": 53.4648608, "lng": -2.3310829}}, "location": {"lat": 53.48752349999999, "lng": -2.2901264}, "location_type": "APPROXIMATE", "viewport": {"northeast": {"lat": 53.51842809999999, "lng": -2.2451382}, "southwest": {"lat": 53.4648608, "lng": -2.3310829}}}, "place_id": "ChIJEVdF_g2ue0gRFtj1WL_-9G0", "types": ["locality", "political"]}], "status": "OK"}, "Kiyosu, Aichi, Japan": {"results": [{"address_components": [{"long_name": "Kiyosu", "short_name": "Kiyosu", "types": ["locality", "political"]}, {"long_name": "Aichi Prefecture", "short_name": "Aichi Prefecture", "types": ["administrative_area_level_1", "political"]}, {"long_name": "Japan", "short_name": "JP", "types": ["country", "political"]}], "formatted_address": "Kiyosu, Aichi Prefecture, Japan", "geometry": {"bounds": {"northeast": {"lat": 35.2517339, "lng": 136.8792766}, "southwest": {"lat": 35.1805222, "lng": 136.8226906}}, "location": {"lat": 35.1998641, "lng": 136.8529447}, "location_type": "APPROXIMATE", "viewport": {"northeast": {"lat": 35.2517339, "lng": 136.8792766}, "southwest": {"lat": 35.1805222, "lng": 136.8226906}}}, "place_id": "ChIJaaSa4bh1A2ARjOQ7vvlEDZU", "types": ["locality", "political"]}], "status": "OK"}, "Queens, New York": {"results": [{"address_components": [{"long_name": "Queens", "short_name": "Queens", "types": ["political", "sublocality", "sublocality_level_1"]}, {"long_name": "Queens County", "short_name": "Queens County", "types": ["administrative_area_level_2", "political"]}, {"long_name": "New York", "short_name": "NY", "types": ["administrative_area_level_1", "political"]}, {"long_name": "United States", "short_name": "US", "types": ["country", "political"]}], "formatted_address": "Queens, NY, USA", "geometry": {"bounds": {"northeast": {"lat": 40.8122421, "lng": -73.70027209999999}, "southwest": {"lat": 40.4897939, "lng": -74.0421119}}, "location": {"lat": 40.7282239, "lng": -73.7948516}, "location_type": "APPROXIMATE", "viewport": {"northeast": {"lat": 40.8122421, "lng": -73.70027209999999}, "southwest": {"lat": 40.4897939, "lng": -74.0421119}}}, "place_id": "ChIJK1kKR2lDwokRBXtcbIvRCUE", "types": ["political", "sublocality", "sublocality_level_1"]}], "status": "OK"}, "Cresco, Iowa": {"results": [{"address_components": [{"long_name": "Cresco", "short_name": "Cresco", "types": ["locality", "political"]}, {"long_name": "Vernon Springs", "short_name": "Vernon Springs", "types": ["administrative_area_level_3", "political"]}, {"long_name": "Howard County", "short_name": "Howard County", "types": ["administrative_area_level_2", "political"]}, {"long_name": "Iowa", "short_name": "IA", "types": ["administrative_area_level_1", "political"]}, {"long_name": "United States", "short_name": "US", "types": ["country", "political"]}, {"long_name": "52136", "short_name": "52136", "types": ["postal_code"]}], "formatted_address": "Cresco, IA 52136, USA", "geometry": {"bounds": {"northeast": {"lat": 43.385715, "lng": -92.1000739}, "southwest": {"lat": 43.3565499, "lng": -92.1401181}}, "location": {"lat": 43.3813568, "lng": -92.1140547}, "location_type": "APPROXIMATE", "viewport": {"northeast": {"lat": 43.385715, "lng": -92.1000739}, "southwest": {"lat": 43.3565499, "lng": -92.1401181}}}, "place_id": "ChIJnQTdzjNC-ocRPs2OROnxXjw", "types": ["locality", "political"]}], "status": "OK"}, "Chicago, IL": {"results": [{"address_components": [{"long_name": "Chicago", "short_name": "Chicago", "types": ["locality", "political"]}, {"long_name": "Cook County", "short_name": "Cook County", "types": ["administrative_area_level_2", "political"]}, {"long_name": "Illinois", "short_name": "IL", "types": ["administrative_area_level_1", "political"]}, {"long_name": "United States", "short_name": "US", "types": ["country", "political"]}], "formatted_address": "Chicago, IL, USA", "geometry": {"bounds": {"northeast": {"lat": 42.023131, "lng": -87.52366099999999}, "southwest": {"lat": 41.6443349, "lng": -87.9402669}}, "location": {"lat": 41.8781136, "lng": -87.6297982}, "location_type": "APPROXIMATE", "viewport": {"northeast": {"lat": 42.023131, "lng": -87.52366099999999}, "southwest": {"lat": 41.6443349, "lng": -87.9402669}}}, "place_id": "ChIJ7cv00DwsDogRAMDACa2m4K8", "types": ["locality", "political"]}], "status": "OK"}, "Sacred Heart, OK": {"results": [{"address_components": [{"long_name": "Sacred Heart", "short_name": "Sacred Heart", "types": ["colloquial_area", "political"]}, {"long_name": "Pottawatomie County", "short_name": "Pottawatomie County", "types": ["administrative_area_level_2", "political"]}, {"long_name": "Oklahoma", "short_name": "OK", "types": ["administrative_area_level_1", "political"]}, {"long_name": "United States", "short_name": "US", "types": ["country", "political"]}, {"long_name": "74849", "short_name": "74849", "types": ["postal_code"]}], "formatted_address": "Sacred Heart, OK 74849, USA", "geometry": {"location": {"lat": 35.0011913, "lng": -96.80946399999999}, "location_type": "APPROXIMATE", "viewport": {"northeast": {"lat": 35.0103307, "lng": -96.7934566}, "southwest": {"lat": 34.9920508, "lng": -96.8254714}}}, "place_id": "ChIJjQkB6UEKs4cRWnCOS9FWyRs", "types": ["colloquial_area", "political"]}], "status": "OK"}, "Bethel, Connecticut": {"results": [{"address_components": [{"long_name": "Bethel", "short_name": "Bethel", "types": ["locality", "political"]}, {"long_name": "Bethel", "short_name": "Bethel", "types": ["administrative_area_level_3", "political"]}, {"long_name": "Fairfield County", "short_name": "Fairfield County", "types": ["administrative_area_level_2", "political"]}, {"long_name": "Connecticut", "short_name": "CT", "types": ["administrative_area_level_1", "political"]}, {"long_name": "United States", "short_name": "US", "types": ["country", "political"]}, {"long_name": "06801", "short_name": "06801", "types": ["postal_code"]}], "formatted_address": "Bethel, CT 06801, USA", "geometry": {"bounds": {"northeast": {"lat": 41.4281939, "lng": -73.34806309999999}, "southwest": {"lat": 41.335195, "lng": -73.434966}}, "location": {"lat": 41.3712283, "lng": -73.41396209999999}, "location_type": "APPROXIMATE", "viewport": {"northeast": {"lat": 41.4281939, "lng": -73.34806309999999}, "southwest": {"lat": 41.335195, "lng": -73.434966}}}, "place_id": "ChIJz3OMQ4z-54kR_JL-NqHxC8s", "types": ["locality", "political"]}], "status": "OK"}, "St. Louis, Missouri": {"results": [{"address_components": [{"long_name": "St. Louis", "short_name": "St. Louis", "types": ["locality", "political"]}, {"long_name": "Missouri", "short_name": "MO", "types": ["administrative_area_level_1", "political"]}, {"long_name": "United States", "short_name": "US", "types": ["country", "political"]}], "formatted_address": "St. Louis, MO, USA", "geometry": {"bounds": {"northeast": {"lat": 38.774349, "lng": -90.166409}, "southwest": {"lat": 38.5318519, "lng": -90.320515}}, "location": {"lat": 38.6270025, "lng": -90.19940419999999}, "location_type": "APPROXIMATE", "viewport": {"northeast": {"lat": 38.774349, "lng": -90.166409}, "southwest": {"lat": 38.5318519, "lng": -90.320515}}}, "place_id": "ChIJ-Y7t-qm02IcRW-C7IsrqOb4", "types": ["locality", "political"]}], "status": "OK"}, "Philadelphia": {"results": [{"address_components": [{"long_name": "Philadelphia", "short_name": "Philadelphia", "types": ["locality", "political"]}, {"long_name": "Philadelphia County", "short_name": "Philadelphia County", "types": ["administrative_area_level_2", "political"]}, {"long_name": "Pennsylvania", "short_name": "PA", "types": ["administrative_area_level_1", "political"]}, {"long_name": "United States", "short_name": "US", "types": ["country", "political"]}], "formatted_address": "Philadelphia, PA, USA", "geometry": {"bounds": {"northeast": {"lat": 40.1379919, "lng": -74.9557629}, "southwest": {"lat": 39.8670041, "lng": -75.280303}}, "location": {"lat": 39.9525839, "lng": -75.1652215}, "location_type": "APPROXIMATE", "viewport": {"northeast": {"lat": 40.1379919, "lng": -74.9557629}, "southwest": {"lat": 39.8670041, "lng": -75.280303}}}, "place_id": "ChIJ60u11Ni3xokRwVg-jNgU9Yk", "types": ["locality", "political"]}], "status": "OK"}, "Brighton, England": {"results": [{"address_components": [{"long_name": "Brighton", "short_name": "Brighton", "types": ["locality", "political"]}, {"long_name": "The City of Brighton and Hove", "short_name": "The City of Brighton and Hove", "types": ["administrative_area_level_2", "political"]}, {"long_name": "England", "short_name": "England", "types": ["administrative_area_level_1", "political"]}, {"long_name": "United Kingdom", "short_name": "GB", "types": ["country", "political"]}], "formatted_address": "Brighton, UK", "geometry": {"bounds": {"northeast": {"lat": 50.8735837, "lng": -0.03626}, "southwest": {"lat": 50.8012522, "lng": -0.1761194}}, "location": {"lat": 50.82253000000001, "lng": -0.137163}, "location_type": "APPROXIMATE", "viewport": {"northeast": {"lat": 50.8735837, "lng": -0.03626}, "southwest": {"lat": 50.8012522, "lng": -0.1761194}}}, "place_id": "ChIJZ0Ep9gmFdUgR-Q59cnqvxpw", "types": ["locality", "political"]}], "status": "OK"}, "Daytona Beach, FL": {"results": [{"address_components": [{"long_name": "Daytona Beach", "short_name": "Daytona Beach", "types": ["locality", "political"]}, {"long_name": "Volusia County", "short_name": "Volusia County", "types": ["administrative_area_level_2", "political"]}, {"long_name": "Florida", "short_name": "FL", "types": ["administrative_area_level_1", "political"]}, {"long_name": "United States", "short_name": "US", "types": ["country", "political"]}], "formatted_address": "Daytona Beach, FL, USA", "geometry": {"bounds": {"northeast": {"lat": 29.2930571, "lng": -80.9829099}, "southwest": {"lat": 29.12747599999999, "lng": -81.21030999999999}}, "location": {"lat": 29.2108147, "lng": -81.0228331}, "location_type": "APPROXIMATE", "viewport": {"northeast": {"lat": 29.2930571, "lng": -80.9829099}, "southwest": {"lat": 29.12747599999999, "lng": -81.21030999999999}}}, "place_id": "ChIJg1YCJZTb5ogR6yrLHbc7ajY", "types": ["locality", "political"]}], "status": "OK"}, "Florence": {"results": [{"address_components": [{"long_name": "Florence", "short_name": "Florence", "types": ["locality", "political"]}, {"long_name": "Florence", "short_name": "Florence", "types": ["administrative_area_level_3", "political"]}, {"long_name": "Metropolitan City of Florence", "short_name": "FI", "types": ["administrative_area_level_2", "political"]}, {"long_name": "Tuscany", "short_name": "Tuscany", "types": ["administrative_area_level_1", "political"]}, {"long_name": "Italy", "short_name": "IT", "types": ["country", "political"]}], "formatted_address": "Florence, Metropolitan City of Florence, Italy", "geometry": {"bounds": {"northeast": {"lat": 43.8329368, "lng": 11.3278993}, "southwest": {"lat": 43.7269795, "lng": 11.1540365}}, "location": {"lat": 43.7695604, "lng": 11.2558136}, "location_type": "APPROXIMATE", "viewport": {"northeast": {"lat": 43.8329368, "lng": 11.3278993}, "southwest": {"lat": 43.7269795, "lng": 11.1540365}}}, "place_id": "ChIJrdbSgKZWKhMRAyrH7xd51ZM", "types": ["locality", "political"]}], "status": "OK"}, "Athens": {"results": [{"address_components": [{"long_name": "Athens", "short_name": "Athens", "types": ["locality", "political"]}, {"long_name": "Central Athens", "short_name": "Central Athens", "types": ["administrative_area_level_3", "political"]}, {"long_name": "Greece", "short_name": "GR", "types": ["country", "political"]}], "formatted_address": "Athens, Greece", "geometry": {"bounds": {"northeast": {"lat": 38.0328563, "lng": 23.7896925}, "southwest": {"lat": 37.9488181, "lng": 23.6869862}}, "location": {"lat": 37.9838096, "lng": 23.7275388}, "location_type": "APPROXIMATE", "viewport": {"northeast": {"lat": 38.0328563, "lng": 23.7896925}, "southwest": {"lat": 37.9488181, "lng": 23.6869862}}}, "place_id": "ChIJ8UNwBh-9oRQR3Y1mdkU1Nic", "types": ["locality", "political"]}], "status": "OK"}, "Ei\u0161i\u0161k\u0117s": {"results": [{"address_components": [{"long_name": "Ei\u0161i\u0161k\u0117s", "short_name": "Ei\u0161i\u0161k\u0117s", "types": ["locality", "political"]}, {"long_name": "\u0160al\u010dininkai District Municipality", "short_name": "\u0160al\u010dininkai District Municipality", "types": ["administrative_area_level_2", "political"]}, {"long_name": "Vilnius County", "short_name": "Vilnius County", "types": ["administrative_area_level_1", "political"]}, {"long_name": "Lithuania", "short_name": "LT", "types": ["country", "political"]}], "formatted_address": "Ei\u0161i\u0161k\u0117s, Lithuania", "geometry": {"bounds": {"northeast": {"lat": 54.18859089999999, "lng": 25.0150351}, "southwest": {"lat": 54.159716, "lng": 24.9838479}}, "location": {"lat": 54.17425189999999, "lng": 24.999369}, "location_type": "APPROXIMATE", "viewport": {"northeast": {"lat": 54.18859089999999, "lng": 25.0150351}, "southwest": {"lat": 54.159716, "lng": 24.9838479}}}, "place_id": "ChIJbeCmYaFz3kYRUIS6yY7RAAo", "types": ["locality", "political"]}], "status": "OK"}, "Paris": {"results": [{"address_components": [{"long_name": "Paris", "short_name": "Paris", "types": ["locality", "political"]}, {"long_name": "Paris", "short_name": "Paris", "types": ["administrative_area_level_2", "political"]}, {"long_name": "\u00cele-de-France", "short_name": "\u00cele-de-France", "types": ["administrative_area_level_1", "political"]}, {"long_name": "France", "short_name": "FR", "types": ["country", "political"]}], "formatted_address": "Paris, France", "geometry": {"bounds": {"northeast": {"lat": 48.9021449, "lng": 2.4699208}, "southwest": {"lat": 48.815573, "lng": 2.224199}}, "location": {"lat": 48.856614, "lng": 2.3522219}, "location_type": "APPROXIMATE", "viewport": {"northeast": {"lat": 48.9021449, "lng": 2.4699208}, "southwest": {"lat": 48.815573, "lng": 2.224199}}}, "place_id": "ChIJD7fiBh9u5kcRYJSMaMOCCwQ", "types": ["locality", "political"]}], "status": "OK"}, "Oakland, CA": {"results": [{"address_components": [{"long_name": "Oakland", "short_name": "Oakland", "types": ["locality", "political"]}, {"long_name": "Alameda County", "short_name": "Alameda County", "types": ["administrative_area_level_2", "political"]}, {"long_name": "California", "short_name": "CA", "types": ["administrative_area_level_1", "political"]}, {"long_name": "United States", "short_name": "US", "types": ["country", "political"]}], "formatted_address": "Oakland, CA, USA", "geometry": {"bounds": {"northeast": {"lat": 37.88472489999999, "lng": -122.114775}, "southwest": {"lat": 37.6322259, "lng": -122.355881}}, "location": {"lat": 37.8043637, "lng": -122.2711137}, "location_type": "APPROXIMATE", "viewport": {"northeast": {"lat": 37.88472489999999, "lng": -122.114775}, "southwest": {"lat": 37.6322259, "lng": -122.355881}}}, "place_id": "ChIJA-2qKIt9hYARZ5N1NdUVtHE", "types": ["locality", "political"]}], "status": "OK"}, "Lima": {"results": [{"address_components": [{"long_name": "Lima", "short_name": "Lima", "types": ["colloquial_area", "locality", "political"]}, {"long_name": "Callao Region", "short_name": "Callao Region", "types": ["administrative_area_level_1", "political"]}, {"long_name": "Peru", "short_name": "PE", "types": ["country", "political"]}], "formatted_address": "Lima, Peru", "geometry": {"bounds": {"northeast": {"lat": -11.7999875, "lng": -76.78833970000001}, "southwest": {"lat": -12.2532891, "lng": -77.1872186}}, "location": {"lat": -12.0463731, "lng": -77.042754}, "location_type": "APPROXIMATE", "viewport": {"northeast": {"lat": -11.7999875, "lng": -76.78833970000001}, "southwest": {"lat": -12.2532891, "lng": -77.1872186}}}, "place_id": "ChIJxz7uGfbFBZERSi5FzLlsIBQ", "types": ["colloquial_area", "locality", "political"]}], "status": "OK"}, "Salford": {"results": [{"address_components": [{"long_name": "Salford", "short_name": "Salford", "types": ["locality", "political"]}, {"long_name": "Greater Manchester", "short_name": "Greater Manchester", "types": ["administrative_area_level_2", "political"]}, {"long_name": "England", "short_name": "England", "types": ["administrative_area_level_1", "political"]}, {"long_name": "United Kingdom", "short_name": "GB", "types": ["country", "political"]}], "formatted_address": "Salford, UK", "geometry": {"bounds": {"northeast": {"lat": 53.51842809999999, "lng": -2.2451382}, "southwest": {"lat": 53.4648608, "lng": -2.3310829}}, "location": {"lat": 53.48752349999999, "lng": -2.2901264}, "location_type": "APPROXIMATE", "viewport": {"northeast": {"lat": 53.51842809999999, "lng": -2.2451382}, "southwest": {"lat": 53.4648608, "lng": -2.3310829}}}, "place_id": "ChIJEVdF_g2ue0gRFtj1WL_-9G0", "types": ["locality", "political"]}, {"address_components": [{"long_name": "Salford District", "short_name": "Salford District", "types": ["administrative_area_level_3", "political"]}, {"long_name": "Greater Manchester", "short_name": "Greater Manchester", "types": ["administrative_area_level_2", "political"]}, {"long_name": "England", "short_name": "England", "types": ["administrative_area_level_1", "political"]}, {"long_name": "United Kingdom", "short_name": "GB", "types": ["country", "political"]}], "formatted_address": "Salford District, UK", "geometry": {"bounds": {"northeast": {"lat": 53.5421225, "lng": -2.2451065}, "southwest": {"lat": 53.41587500000001, "lng": -2.4897313}}, "location": {"lat": 53.4857577, "lng": -2.3835945}, "location_type": "APPROXIMATE", "viewport": {"northeast": {"lat": 53.5421225, "lng": -2.2451065}, "southwest": {"lat": 53.41587500000001, "lng": -2.4897313}}}, "place_id": "ChIJP5NeEsuue0gRsDNpWLxiEAQ", "types": ["administrative_area_level_3", "political"]}], "status": "OK"}, "Vicu\u00f1a": {"results": [{"address_components": [{"long_name": "15", "short_name": "15", "types": ["street_number"]}, {"long_name": "Main Street", "short_name": "Main St", "types": ["route"]}, {"long_name": "Peterborough", "short_name": "Peterborough", "types": ["neighborhood", "political"]}, {"long_name": "Peterborough", "short_name": "Peterborough", "types": ["locality", "political"]}, {"long_name": "Peterborough", "short_name": "Peterborough", "types": ["administrative_area_level_3", "political"]}, {"long_name": "Hillsborough County", "short_name": "Hillsborough County", "types": ["administrative_area_level_2", "political"]}, {"long_name": "New Hampshire", "short_name": "NH", "types": ["administrative_area_level_1", "political"]}, {"long_name": "United States", "short_name": "US", "types": ["country", "political"]}, {"long_name": "03458", "short_name": "03458", "types": ["postal_code"]}], "formatted_address": "15 Main St, Peterborough, NH 03458, USA", "geometry": {"location": {"lat": 42.87773500000001, "lng": -71.9490023}, "location_type": "ROOFTOP", "viewport": {"northeast": {"lat": 42.87908398029151, "lng": -71.94765331970851}, "southwest": {"lat": 42.87638601970851, "lng": -71.95035128029151}}}, "place_id": "ChIJr2nD_gDW44kRqJo6TH4pYwc", "plus_code": {"compound_code": "V3H2+39 Peterborough, NH, United States", "global_code": "87JCV3H2+39"}, "types": ["establishment", "food", "point_of_interest", "store"]}], "status": "OK"}, "Ghent": {"results": [{"address_components": [{"long_name": "Ghent", "short_name": "Ghent", "types": ["locality", "political"]}, {"long_name": "East Flanders", "short_name": "OV", "types": ["administrative_area_level_2", "political"]}, {"long_name": "Flanders", "short_name": "Flanders", "types": ["administrative_area_level_1", "political"]}, {"long_name": "Belgium", "short_name": "BE", "types": ["country", "political"]}], "formatted_address": "Ghent, Belgium", "geometry": {"bounds": {"northeast": {"lat": 51.1880501, "lng": 3.8492301}, "southwest": {"lat": 50.97683, "lng": 3.57974}}, "location": {"lat": 51.0543422, "lng": 3.7174243}, "location_type": "APPROXIMATE", "viewport": {"northeast": {"lat": 51.1880501, "lng": 3.8492301}, "southwest": {"lat": 50.97683, "lng": 3.57974}}}, "place_id": "ChIJrUOUM-Fww0cRQFFNL6uZAAQ", "types": ["locality", "political"]}], "status": "OK"}, "Eastleigh": {"results": [{"address_components": [{"long_name": "Eastleigh", "short_name": "Eastleigh", "types": ["locality", "political"]}, {"long_name": "Eastleigh", "short_name": "Eastleigh", "types": ["postal_town"]}, {"long_name": "Hampshire", "short_name": "Hampshire", "types": ["administrative_area_level_2", "political"]}, {"long_name": "England", "short_name": "England", "types": ["administrative_area_level_1", "political"]}, {"long_name": "United Kingdom", "short_name": "GB", "types": ["country", "political"]}], "formatted_address": "Eastleigh, UK", "geometry": {"bounds": {"northeast": {"lat": 50.9993458, "lng": -1.3071944}, "southwest": {"lat": 50.952819, "lng": -1.3862483}}, "location": {"lat": 50.967182, "lng": -1.374688}, "location_type": "APPROXIMATE", "viewport": {"northeast": {"lat": 50.9993458, "lng": -1.3071944}, "southwest": {"lat": 50.952819, "lng": -1.3862483}}}, "place_id": "ChIJg_LJlQttdEgRbvm7a-i98l8", "types": ["locality", "political"]}], "status": "OK"}, "Genoa": {"results": [{"address_components": [{"long_name": "Genoa", "short_name": "Genoa", "types": ["locality", "political"]}, {"long_name": "Genoa", "short_name": "Genoa", "types": ["administrative_area_level_3", "political"]}, {"long_name": "Metropolitan City of Genoa", "short_name": "GE", "types": ["administrative_area_level_2", "political"]}, {"long_name": "Liguria", "short_name": "Liguria", "types": ["administrative_area_level_1", "political"]}, {"long_name": "Italy", "short_name": "IT", "types": ["country", "political"]}], "formatted_address": "Genoa, Metropolitan City of Genoa, Italy", "geometry": {"bounds": {"northeast": {"lat": 44.514882, "lng": 9.065572999999999}, "southwest": {"lat": 44.3790734, "lng": 8.7160912}}, "location": {"lat": 44.4056499, "lng": 8.946256}, "location_type": "APPROXIMATE", "viewport": {"northeast": {"lat": 44.514882, "lng": 9.065572999999999}, "southwest": {"lat": 44.3790734, "lng": 8.7160912}}}, "place_id": "ChIJrZrU3FJB0xIRCmKBGPGEaiM", "types": ["locality", "political"]}], "status": "OK"}, "Nuremberg": {"results": [{"address_components": [{"long_name": "Nuremberg", "short_name": "Nord", "types": ["locality", "political"]}, {"long_name": "Middle Franconia", "short_name": "Middle Franconia", "types": ["administrative_area_level_2", "political"]}, {"long_name": "Bavaria", "short_name": "BY", "types": ["administrative_area_level_1", "political"]}, {"long_name": "Germany", "short_name": "DE", "types": ["country", "political"]}], "formatted_address": "Nuremberg, Germany", "geometry": {"bounds": {"northeast": {"lat": 49.5407533, "lng": 11.2825956}, "southwest": {"lat": 49.3314338, "lng": 10.983479}}, "location": {"lat": 49.4521018, "lng": 11.0766654}, "location_type": "APPROXIMATE", "viewport": {"northeast": {"lat": 49.5407533, "lng": 11.2825956}, "southwest": {"lat": 49.3314338, "lng": 10.983479}}}, "place_id": "ChIJ0xy2ta5Xn0cRtyGMqYWvXd0", "types": ["locality", "political"]}], "status": "OK"}, "Salinas Valley, California": {"results": [{"address_components": [{"long_name": "119", "short_name": "119", "types": ["street_number"]}, {"long_name": "East Alisal Street", "short_name": "E Alisal St", "types": ["route"]}, {"long_name": "Salinas", "short_name": "Salinas", "types": ["locality", "political"]}, {"long_name": "Monterey County", "short_name": "Monterey County", "types": ["administrative_area_level_2", "political"]}, {"long_name": "California", "short_name": "CA", "types": ["administrative_area_level_1", "political"]}, {"long_name": "United States", "short_name": "US", "types": ["country", "political"]}, {"long_name": "93901", "short_name": "93901", "types": ["postal_code"]}], "formatted_address": "119 E Alisal St, Salinas, CA 93901, USA", "geometry": {"location": {"lat": 36.674533, "lng": -121.6516531}, "location_type": "ROOFTOP", "viewport": {"northeast": {"lat": 36.67588198029149, "lng": -121.6503041197085}, "southwest": {"lat": 36.67318401970849, "lng": -121.6530020802915}}}, "place_id": "ChIJaca4r-r4jYARkA07n6juvYs", "plus_code": {"compound_code": "M8FX+R8 Salinas, California, United States", "global_code": "848WM8FX+R8"}, "types": ["establishment", "point_of_interest"]}], "status": "OK"}, "Oakville": {"results": [{"address_components": [{"long_name": "Oakville", "short_name": "Oakville", "types": ["locality", "political"]}, {"long_name": "Halton Regional Municipality", "short_name": "Halton Regional Municipality", "types": ["administrative_area_level_2", "political"]}, {"long_name": "Ontario", "short_name": "ON", "types": ["administrative_area_level_1", "political"]}, {"long_name": "Canada", "short_name": "CA", "types": ["country", "political"]}], "formatted_address": "Oakville, ON, Canada", "geometry": {"bounds": {"northeast": {"lat": 43.5280029, "lng": -79.437781}, "southwest": {"lat": 43.36789, "lng": -79.810982}}, "location": {"lat": 43.467517, "lng": -79.6876659}, "location_type": "APPROXIMATE", "viewport": {"northeast": {"lat": 43.5280029, "lng": -79.437781}, "southwest": {"lat": 43.36789, "lng": -79.810982}}}, "place_id": "ChIJeZlyj4tbK4gR0Bsjxyh7AwU", "types": ["locality", "political"]}], "status": "OK"}, "West Hills, Huntington, Long Island, New York": {"results": [{"address_components": [{"long_name": "West Hills", "short_name": "West Hills", "types": ["locality", "political"]}, {"long_name": "Huntington", "short_name": "Huntington", "types": ["administrative_area_level_3", "political"]}, {"long_name": "Suffolk County", "short_name": "Suffolk County", "types": ["administrative_area_level_2", "political"]}, {"long_name": "New York", "short_name": "NY", "types": ["administrative_area_level_1", "political"]}, {"long_name": "United States", "short_name": "US", "types": ["country", "political"]}], "formatted_address": "West Hills, NY, USA", "geometry": {"bounds": {"northeast": {"lat": 40.846614, "lng": -73.409401}, "southwest": {"lat": 40.7954669, "lng": -73.4547778}}, "location": {"lat": 40.8162098, "lng": -73.4323438}, "location_type": "APPROXIMATE", "viewport": {"northeast": {"lat": 40.846614, "lng": -73.409401}, "southwest": {"lat": 40.7954669, "lng": -73.4547778}}}, "place_id": "ChIJ8T634rop6IkRTzxe5wWwnWg", "types": ["locality", "political"]}], "status": "OK"}, "Pittsburgh, Pennsylvania": {"results": [{"address_components": [{"long_name": "Pittsburgh", "short_name": "Pittsburgh", "types": ["locality", "political"]}, {"long_name": "Allegheny County", "short_name": "Allegheny County", "types": ["administrative_area_level_2", "political"]}, {"long_name": "Pennsylvania", "short_name": "PA", "types": ["administrative_area_level_1", "political"]}, {"long_name": "United States", "short_name": "US", "types": ["country", "political"]}], "formatted_address": "Pittsburgh, PA, USA", "geometry": {"bounds": {"northeast": {"lat": 40.501368, "lng": -79.8657231}, "southwest": {"lat": 40.3613689, "lng": -80.0952779}}, "location": {"lat": 40.44062479999999, "lng": -79.9958864}, "location_type": "APPROXIMATE", "viewport": {"northeast": {"lat": 40.501368, "lng": -79.8657231}, "southwest": {"lat": 40.3613689, "lng": -80.0952779}}}, "place_id": "ChIJA4UGSG_xNIgRNBuiWqEV-Y0", "types": ["locality", "political"]}], "status": "OK"}, "Brooklyn, New York": {"results": [{"address_components": [{"long_name": "Brooklyn", "short_name": "Brooklyn", "types": ["political", "sublocality", "sublocality_level_1"]}, {"long_name": "Kings County", "short_name": "Kings County", "types": ["administrative_area_level_2", "political"]}, {"long_name": "New York", "short_name": "NY", "types": ["administrative_area_level_1", "political"]}, {"long_name": "United States", "short_name": "US", "types": ["country", "political"]}], "formatted_address": "Brooklyn, NY, USA", "geometry": {"bounds": {"northeast": {"lat": 40.739446, "lng": -73.8333651}, "southwest": {"lat": 40.551042, "lng": -74.05663}}, "location": {"lat": 40.6781784, "lng": -73.9441579}, "location_type": "APPROXIMATE", "viewport": {"northeast": {"lat": 40.739446, "lng": -73.8333651}, "southwest": {"lat": 40.551042, "lng": -74.05663}}}, "place_id": "ChIJCSF8lBZEwokRhngABHRcdoI", "types": ["political", "sublocality", "sublocality_level_1"]}], "status": "OK"}, "Memphis, Tennessee": {"results": [{"address_components": [{"long_name": "Memphis", "short_name": "Memphis", "types": ["locality", "political"]}, {"long_name": "Shelby County", "short_name": "Shelby County", "types": ["administrative_area_level_2", "political"]}, {"long_name": "Tennessee", "short_name": "TN", "types": ["administrative_area_level_1", "political"]}, {"long_name": "United States", "short_name": "US", "types": ["country", "political"]}], "formatted_address": "Memphis, TN, USA", "geometry": {"bounds": {"northeast": {"lat": 35.264187, "lng": -89.637081}, "southwest": {"lat": 34.994185, "lng": -90.3044929}}, "location": {"lat": 35.1495343, "lng": -90.0489801}, "location_type": "APPROXIMATE", "viewport": {"northeast": {"lat": 35.264187, "lng": -89.637081}, "southwest": {"lat": 34.994185, "lng": -90.3044929}}}, "place_id": "ChIJRZdD6h5-1YcR_rYaYBXzk9E", "types": ["locality", "political"]}], "status": "OK"}, "Minneapolis, Minnesota": {"results": [{"address_components": [{"long_name": "Minneapolis", "short_name": "Minneapolis", "types": ["locality", "political"]}, {"long_name": "Hennepin County", "short_name": "Hennepin County", "types": ["administrative_area_level_2", "political"]}, {"long_name": "Minnesota", "short_name": "MN", "types": ["administrative_area_level_1", "political"]}, {"long_name": "United States", "short_name": "US", "types": ["country", "political"]}], "formatted_address": "Minneapolis, MN, USA", "geometry": {"bounds": {"northeast": {"lat": 45.05125, "lng": -93.193794}, "southwest": {"lat": 44.890144, "lng": -93.329163}}, "location": {"lat": 44.977753, "lng": -93.2650108}, "location_type": "APPROXIMATE", "viewport": {"northeast": {"lat": 45.05125, "lng": -93.193794}, "southwest": {"lat": 44.890144, "lng": -93.329163}}}, "place_id": "ChIJvbt3k5Azs1IRB-56L4TJn5M", "types": ["locality", "political"]}], "status": "OK"}, "New York City, New York": {"results": [{"address_components": [{"long_name": "New York", "short_name": "New York", "types": ["locality", "political"]}, {"long_name": "New York", "short_name": "NY", "types": ["administrative_area_level_1", "political"]}, {"long_name": "United States", "short_name": "US", "types": ["country", "political"]}], "formatted_address": "New York, NY, USA", "geometry": {"bounds": {"northeast": {"lat": 40.9175771, "lng": -73.70027209999999}, "southwest": {"lat": 40.4773991, "lng": -74.25908989999999}}, "location": {"lat": 40.7127753, "lng": -74.0059728}, "location_type": "APPROXIMATE", "viewport": {"northeast": {"lat": 40.9175771, "lng": -73.70027209999999}, "southwest": {"lat": 40.4773991, "lng": -74.25908989999999}}}, "place_id": "ChIJOwg_06VPwokRYv534QaPC8g", "types": ["locality", "political"]}], "status": "OK"}, "Stevens Point, Wisconsin": {"results": [{"address_components": [{"long_name": "Stevens Point", "short_name": "Stevens Point", "types": ["locality", "political"]}, {"long_name": "Portage County", "short_name": "Portage County", "types": ["administrative_area_level_2", "political"]}, {"long_name": "Wisconsin", "short_name": "WI", "types": ["administrative_area_level_1", "political"]}, {"long_name": "United States", "short_name": "US", "types": ["country", "political"]}], "formatted_address": "Stevens Point, WI, USA", "geometry": {"bounds": {"northeast": {"lat": 44.5675168, "lng": -89.494562}, "southwest": {"lat": 44.493975, "lng": -89.6074051}}, "location": {"lat": 44.52357920000001, "lng": -89.574563}, "location_type": "APPROXIMATE", "viewport": {"northeast": {"lat": 44.5675168, "lng": -89.494562}, "southwest": {"lat": 44.493975, "lng": -89.6074051}}}, "place_id": "ChIJP5gzjY1aAIgRM67SsGh5voI", "types": ["locality", "political"]}], "status": "OK"}, "Kent": {"results": [{"address_components": [{"long_name": "Kent", "short_name": "Kent", "types": ["locality", "political"]}, {"long_name": "Portage County", "short_name": "Portage County", "types": ["administrative_area_level_2", "political"]}, {"long_name": "Ohio", "short_name": "OH", "types": ["administrative_area_level_1", "political"]}, {"long_name": "United States", "short_name": "US", "types": ["country", "political"]}], "formatted_address": "Kent, OH, USA", "geometry": {"bounds": {"northeast": {"lat": 41.1756921, "lng": -81.3099939}, "southwest": {"lat": 41.1176459, "lng": -81.392454}}, "location": {"lat": 41.1536674, "lng": -81.3578859}, "location_type": "APPROXIMATE", "viewport": {"northeast": {"lat": 41.1756921, "lng": -81.3099939}, "southwest": {"lat": 41.1176459, "lng": -81.392454}}}, "place_id": "ChIJibNT-BclMYgRj8SEQpjpMso", "types": ["locality", "political"]}], "status": "OK"}, "CFB Baden-S\u00f6llingen": {"results": [], "status": "ZERO_RESULTS"}, "Motihari, Bihar": {"results": [{"address_components": [{"long_name": "Motihari", "short_name": "Motihari", "types": ["locality", "political"]}, {"long_name": "Purvi Champaran", "short_name": "Purvi Champaran", "types": ["administrative_area_level_2", "political"]}, {"long_name": "Bihar", "short_name": "BR", "types": ["administrative_area_level_1", "political"]}, {"long_name": "India", "short_name": "IN", "types": ["country", "political"]}], "formatted_address": "Motihari, Bihar, India", "geometry": {"bounds": {"northeast": {"lat": 26.6720896, "lng": 84.9551929}, "southwest": {"lat": 26.6002628, "lng": 84.8853555}}, "location": {"lat": 26.6438482, "lng": 84.9040337}, "location_type": "APPROXIMATE", "viewport": {"northeast": {"lat": 26.6720896, "lng": 84.9551929}, "southwest": {"lat": 26.6002628, "lng": 84.8853555}}}, "place_id": "ChIJaYFAhvc0kzkRJza6OlWeV5Q", "types": ["locality", "political"]}], "status": "OK"}, "Jacksonville, Illinois": {"results": [{"address_components": [{"long_name": "Jacksonville", "short_name": "Jacksonville", "types": ["locality", "political"]}, {"long_name": "Morgan County", "short_name": "Morgan County", "types": ["administrative_area_level_2", "political"]}, {"long_name": "Illinois", "short_name": "IL", "types": ["administrative_area_level_1", "political"]}, {"long_name": "United States", "short_name": "US", "types": ["country", "political"]}, {"long_name": "62650", "short_name": "62650", "types": ["postal_code"]}], "formatted_address": "Jacksonville, IL 62650, USA", "geometry": {"bounds": {"northeast": {"lat": 39.75766, "lng": -90.1715639}, "southwest": {"lat": 39.693945, "lng": -90.2922909}}, "location": {"lat": 39.733936, "lng": -90.2290098}, "location_type": "APPROXIMATE", "viewport": {"northeast": {"lat": 39.75766, "lng": -90.1715639}, "southwest": {"lat": 39.693945, "lng": -90.2922909}}}, "place_id": "ChIJPQt5VODr34cR3k7CpZoLrTs", "types": ["locality", "political"]}], "status": "OK"}, "Calcutta": {"results": [{"address_components": [{"long_name": "Kolkata", "short_name": "Kolkata", "types": ["locality", "political"]}, {"long_name": "Kolkata", "short_name": "Kolkata", "types": ["administrative_area_level_2", "political"]}, {"long_name": "West Bengal", "short_name": "WB", "types": ["administrative_area_level_1", "political"]}, {"long_name": "India", "short_name": "IN", "types": ["country", "political"]}], "formatted_address": "Kolkata, West Bengal, India", "geometry": {"bounds": {"northeast": {"lat": 23.0083628, "lng": 88.5428696}, "southwest": {"lat": 22.3436288, "lng": 88.1165879}}, "location": {"lat": 22.572646, "lng": 88.36389500000001}, "location_type": "APPROXIMATE", "viewport": {"northeast": {"lat": 23.0083628, "lng": 88.5428696}, "southwest": {"lat": 22.3436288, "lng": 88.1165879}}}, "place_id": "ChIJZ_YISduC-DkRvCxsj-Yw40M", "types": ["locality", "political"]}], "status": "OK"}, "Steventon Rectory, Hampshire, England": {"results": [{"address_components": [{"long_name": "Steventon", "short_name": "Steventon", "types": ["locality", "political"]}, {"long_name": "Basingstoke", "short_name": "Basingstoke", "types": ["postal_town"]}, {"long_name": "Hampshire", "short_name": "Hampshire", "types": ["administrative_area_level_2", "political"]}, {"long_name": "England", "short_name": "England", "types": ["administrative_area_level_1", "political"]}, {"long_name": "United Kingdom", "short_name": "GB", "types": ["country", "political"]}, {"long_name": "RG25 3BG", "short_name": "RG25 3BG", "types": ["postal_code"]}], "formatted_address": "Steventon, Basingstoke RG25 3BG, UK", "geometry": {"location": {"lat": 51.228457, "lng": -1.2201169}, "location_type": "APPROXIMATE", "viewport": {"northeast": {"lat": 51.2354438, "lng": -1.2041095}, "southwest": {"lat": 51.22146919999999, "lng": -1.2361243}}}, "partial_match": true, "place_id": "ChIJT5BXrmIZdEgR2jnTv26dCYc", "types": ["locality", "political"]}], "status": "OK"}, "Bridgeport, CT": {"results": [{"address_components": [{"long_name": "Bridgeport", "short_name": "Bridgeport", "types": ["locality", "political"]}, {"long_name": "Fairfield County", "short_name": "Fairfield County", "types": ["administrative_area_level_2", "political"]}, {"long_name": "Connecticut", "short_name": "CT", "types": ["administrative_area_level_1", "political"]}, {"long_name": "United States", "short_name": "US", "types": ["country", "political"]}], "formatted_address": "Bridgeport, CT, USA", "geometry": {"bounds": {"northeast": {"lat": 41.22959600000001, "lng": -73.1538539}, "southwest": {"lat": 41.139896, "lng": -73.2441589}}, "location": {"lat": 41.1792258, "lng": -73.1894384}, "location_type": "APPROXIMATE", "viewport": {"northeast": {"lat": 41.22959600000001, "lng": -73.1538539}, "southwest": {"lat": 41.139896, "lng": -73.2441589}}}, "place_id": "ChIJGTd4lioJ6IkRzs5PCaf8i98", "types": ["locality", "political"]}], "status": "OK"}, "Stageira": {"results": [{"address_components": [{"long_name": "Stagira", "short_name": "Stagira", "types": ["locality", "political"]}, {"long_name": "Halkidiki", "short_name": "Halkidiki", "types": ["administrative_area_level_3", "political"]}, {"long_name": "Greece", "short_name": "GR", "types": ["country", "political"]}, {"long_name": "630 74", "short_name": "630 74", "types": ["postal_code"]}], "formatted_address": "Stagira 630 74, Greece", "geometry": {"bounds": {"northeast": {"lat": 40.5315768, "lng": 23.7548135}, "southwest": {"lat": 40.5280192, "lng": 23.74905}}, "location": {"lat": 40.5301218, "lng": 23.7522761}, "location_type": "APPROXIMATE", "viewport": {"northeast": {"lat": 40.5315768, "lng": 23.7548135}, "southwest": {"lat": 40.5280192, "lng": 23.74905}}}, "place_id": "ChIJ_3UYV4XnqBQR8qq_P007_90", "types": ["locality", "political"]}], "status": "OK"}, "Cambridge, Maryland": {"results": [{"address_components": [{"long_name": "Cambridge", "short_name": "Cambridge", "types": ["locality", "political"]}, {"long_name": "7, Cambridge", "short_name": "7, Cambridge", "types": ["administrative_area_level_3", "political"]}, {"long_name": "Dorchester County", "short_name": "Dorchester County", "types": ["administrative_area_level_2", "political"]}, {"long_name": "Maryland", "short_name": "MD", "types": ["administrative_area_level_1", "political"]}, {"long_name": "United States", "short_name": "US", "types": ["country", "political"]}, {"long_name": "21613", "short_name": "21613", "types": ["postal_code"]}], "formatted_address": "Cambridge, MD 21613, USA", "geometry": {"bounds": {"northeast": {"lat": 38.59457, "lng": -76.036384}, "southwest": {"lat": 38.50294400000001, "lng": -76.1143051}}, "location": {"lat": 38.5631744, "lng": -76.0788292}, "location_type": "APPROXIMATE", "viewport": {"northeast": {"lat": 38.59457, "lng": -76.036384}, "southwest": {"lat": 38.50294400000001, "lng": -76.1143051}}}, "place_id": "ChIJx1Me3AFKuIkRFpfLVX1KUDM", "types": ["locality", "political"]}], "status": "OK"}, "Newton, Massachusetts": {"results": [{"address_components": [{"long_name": "Newton", "short_name": "Newton", "types": ["locality", "political"]}, {"long_name": "Middlesex County", "short_name": "Middlesex County", "types": ["administrative_area_level_2", "political"]}, {"long_name": "Massachusetts", "short_name": "MA", "types": ["administrative_area_level_1", "political"]}, {"long_name": "United States", "short_name": "US", "types": ["country", "political"]}], "formatted_address": "Newton, MA, USA", "geometry": {"bounds": {"northeast": {"lat": 42.3679719, "lng": -71.1569968}, "southwest": {"lat": 42.2827739, "lng": -71.270359}}, "location": {"lat": 42.3370413, "lng": -71.20922139999999}, "location_type": "APPROXIMATE", "viewport": {"northeast": {"lat": 42.3679719, "lng": -71.1569968}, "southwest": {"lat": 42.2827739, "lng": -71.270359}}}, "place_id": "ChIJpSUHhAmC44kRfq9wm3sIklU", "types": ["locality", "political"]}], "status": "OK"}, "Kesswil, Thurgau": {"results": [{"address_components": [{"long_name": "Kesswil", "short_name": "Kesswil", "types": ["locality", "political"]}, {"long_name": "Arbon District", "short_name": "Arbon District", "types": ["administrative_area_level_2", "political"]}, {"long_name": "Thurgau", "short_name": "TG", "types": ["administrative_area_level_1", "political"]}, {"long_name": "Switzerland", "short_name": "CH", "types": ["country", "political"]}, {"long_name": "8593", "short_name": "8593", "types": ["postal_code"]}], "formatted_address": "8593 Kesswil, Switzerland", "geometry": {"bounds": {"northeast": {"lat": 47.6010686, "lng": 9.3315978}, "southwest": {"lat": 47.57271, "lng": 9.2975701}}, "location": {"lat": 47.5935362, "lng": 9.3177304}, "location_type": "APPROXIMATE", "viewport": {"northeast": {"lat": 47.6010686, "lng": 9.3315978}, "southwest": {"lat": 47.57271, "lng": 9.2975701}}}, "place_id": "ChIJmz5yb238mkcRa7IMpsrAF_o", "types": ["locality", "political"]}], "status": "OK"}, "Jerusalem": {"results": [{"address_components": [{"long_name": "Jerusalem", "short_name": "Jerusalem", "types": ["locality", "political"]}, {"long_name": "Jerusalem District", "short_name": "Jerusalem District", "types": ["administrative_area_level_1", "political"]}, {"long_name": "Israel", "short_name": "IL", "types": ["country", "political"]}], "formatted_address": "Jerusalem, Israel", "geometry": {"bounds": {"northeast": {"lat": 31.8829601, "lng": 35.2652869}, "southwest": {"lat": 31.7096771, "lng": 35.0854311}}, "location": {"lat": 31.768319, "lng": 35.21371}, "location_type": "APPROXIMATE", "viewport": {"northeast": {"lat": 31.8829601, "lng": 35.2652869}, "southwest": {"lat": 31.7096771, "lng": 35.0854311}}}, "place_id": "ChIJS_zBNNbXAhURy-FuRT5ib9k", "types": ["locality", "political"]}], "status": "OK"}, "Sherbrooke": {"results": [{"address_components": [{"long_name": "Sherbrooke", "short_name": "Sherbrooke", "types": ["locality", "political"]}, {"long_name": "La R\u00e9gion-Sherbrookoise", "short_name": "La R\u00e9gion-Sherbrookoise", "types": ["administrative_area_level_2", "political"]}, {"long_name": "Quebec", "short_name": "QC", "types": ["administrative_area_level_1", "political"]}, {"long_name": "Canada", "short_name": "CA", "types": ["country", "political"]}], "formatted_address": "Sherbrooke, QC, Canada", "geometry": {"bounds": {"northeast": {"lat": 45.533256, "lng": -71.802458}, "southwest": {"lat": 45.3008991, "lng": -72.145805}}, "location": {"lat": 45.4041718, "lng": -71.8929107}, "location_type": "APPROXIMATE", "viewport": {"northeast": {"lat": 45.533256, "lng": -71.802458}, "southwest": {"lat": 45.3008991, "lng": -72.145805}}}, "place_id": "ChIJ_8s11wyzt0wRZwdc0iGNGvE", "types": ["locality", "political"]}], "status": "OK"}, "Prost\u011bjov, Moravia": {"results": [{"address_components": [{"long_name": "Prost\u011bjov", "short_name": "Prost\u011bjov", "types": ["locality", "political"]}, {"long_name": "Prost\u011bjov District", "short_name": "Prost\u011bjov District", "types": ["administrative_area_level_2", "political"]}, {"long_name": "Olomouc Region", "short_name": "Olomouc Region", "types": ["administrative_area_level_1", "political"]}, {"long_name": "Czechia", "short_name": "CZ", "types": ["country", "political"]}], "formatted_address": "Prost\u011bjov, Czechia", "geometry": {"bounds": {"northeast": {"lat": 49.50379179999999, "lng": 17.1843346}, "southwest": {"lat": 49.4243069, "lng": 17.0362884}}, "location": {"lat": 49.4724489, "lng": 17.1067513}, "location_type": "APPROXIMATE", "viewport": {"northeast": {"lat": 49.50379179999999, "lng": 17.1843346}, "southwest": {"lat": 49.4243069, "lng": 17.0362884}}}, "place_id": "ChIJx5PTU0RXEkcRovtBexKZrfI", "types": ["locality", "political"]}], "status": "OK"}, "Me\u00dfkirch": {"results": [{"address_components": [{"long_name": "Messkirch", "short_name": "Messkirch", "types": ["locality", "political"]}, {"long_name": "Sigmaringen", "short_name": "SIG", "types": ["administrative_area_level_3", "political"]}, {"long_name": "T\u00fcbingen", "short_name": "T\u00dc", "types": ["administrative_area_level_2", "political"]}, {"long_name": "Baden-W\u00fcrttemberg", "short_name": "BW", "types": ["administrative_area_level_1", "political"]}, {"long_name": "Germany", "short_name": "DE", "types": ["country", "political"]}, {"long_name": "88605", "short_name": "88605", "types": ["postal_code"]}], "formatted_address": "88605 Messkirch, Germany", "geometry": {"bounds": {"northeast": {"lat": 48.0610832, "lng": 9.194769299999999}, "southwest": {"lat": 47.953906, "lng": 9.044399499999999}}, "location": {"lat": 47.9944211, "lng": 9.1156399}, "location_type": "APPROXIMATE", "viewport": {"northeast": {"lat": 48.0610832, "lng": 9.194769299999999}, "southwest": {"lat": 47.953906, "lng": 9.044399499999999}}}, "place_id": "ChIJFabh7GFqmkcRdiXxQ_myGmo", "types": ["locality", "political"]}], "status": "OK"}}